[
  {
    "id": "lago-azul",
    "type": "ecoponto",
    "name": "Ecoponto Lago Azul",
    "address": "Cruzamento entre a Av. Juscelino Kubitschek e a Rua José Guerra.",
    "materials": "Entulho, recicláveis, móveis, eletrodomésticos, lâmpadas e baterias domésticas.",
    "hours": "Todos os dias, 24h.",
    "mapsUrl": "https://www.google.com/maps/search/?api=1&query=Av.+Juscelino+Kubitschek+e+Rua+Jose+Guerra%2C+Aracatuba+-+SP",
    "lat": -21.2369994,
    "lon": -50.4579689
  },
  {
    "id": "claudionor-cinti",
    "type": "ecoponto",
    "name": "Ecoponto Claudionor Cinti",
    "address": "Cruzamento entre a Av. Juscelino Kubitschek e a Rua Adalberto da Cunha Capela.",
    "materials": "Entulho, recicláveis, móveis, eletrodomésticos, lâmpadas e baterias domésticas.",
    "hours": "Todos os dias, 24h.",
    "mapsUrl": "https://www.google.com/maps/search/?api=1&query=Av.+Juscelino+Kubitschek+e+Rua+Adalberto+da+Cunha+Capela%2C+Aracatuba+-+SP",
    "lat": -21.2302376,
    "lon": -50.4713378
  },
  {
    "id": "sao-jose",
    "type": "ecoponto",
    "name": "Ecoponto São José",
    "address": "Cruzamento entre a Rua Rafael Manarelli e a Rua Deodato Izique.",
    "materials": "Entulho, recicláveis, móveis, eletrodomésticos, lâmpadas e baterias domésticas.",
    "hours": "Todos os dias, 24h.",
    "mapsUrl": "https://www.google.com/maps/search/?api=1&query=Rua+Rafael+Manarelli+e+Rua+Deodato+Izique%2C+Aracatuba+-+SP",
    "lat": -21.2001,
    "lon": -50.474
  },
  {
    "id": "country",
    "type": "ecoponto",
    "name": "Ecoponto Country",
    "address": "Av. Odorindo Perenha, 2220, em frente ao antigo Country Clube.",
    "materials": "Entulho, recicláveis, móveis, eletrodomésticos, lâmpadas e baterias domésticas.",
    "hours": "Todos os dias, 24h.",
    "mapsUrl": "https://www.google.com/maps/search/?api=1&query=Avenida+Odorindo+Perenha%2C+2220%2C+Aracatuba+-+SP",
    "lat": -21.2186112,
    "lon": -50.4104048
  },
  {
    "id": "fundadores",
    "type": "ecoponto",
    "name": "Ecoponto Fundadores",
    "address": "Av. dos Fundadores, 4783, no final da avenida.",
    "materials": "Entulho, recicláveis, móveis, eletrodomésticos, lâmpadas e baterias domésticas.",
    "hours": "Todos os dias, 24h.",
    "mapsUrl": "https://www.google.com/maps/search/?api=1&query=Avenida+dos+Fundadores%2C+4783%2C+Aracatuba+-+SP",
    "lat": -21.191059,
    "lon": -50.4748018
  },
  {
    "id": "pev-secretaria-meio-ambiente",
    "type": "pev",
    "name": "PEV da Secretaria de Meio Ambiente",
    "address": "Av. Doutor Alcides Fagundes Chagas, 222, bairro Aviação.",
    "materials": "Pequenas quantidades de recicláveis, lâmpadas e baterias domésticas.",
    "hours": "De segunda a sexta, das 8h às 17h.",
    "mapsUrl": "https://www.google.com/maps/search/?api=1&query=Avenida+Doutor+Alcides+Fagundes+Chagas%2C+222%2C+Aracatuba+-+SP",
    "lat": -21.1981831,
    "lon": -50.431116
  }
]
